Urheberrecht (Copyright) ITZBund, Daten von Pegel Online (www.pegelonline.wsv.de)
[
  {
    "uuid": "c0ec139b-13b4-4f86-bee3-06665ad81a40",
    "number": "9510070",
    "shortname": "HELGOLAND BINNENHAFEN",
    "longname": "HELGOLAND BINNENHAFEN",
    "km": 0.0,
    "agency": "STANDORT TÖNNING",
    "longitude": 7.889904217347014,
    "latitude": 54.17889396322482,
    "water": {
      "shortname": "NORDSEE",
      "longname": "NORDSEE"
    }
  },
  {
    "uuid": "2852b9ab-d30e-4d04-ae06-3e946f48a0b1",
    "number": "9550021",
    "shortname": "PELLWORM ANLEGER",
    "longname": "PELLWORM ANLEGER",
    "km": 0.0,
    "agency": "STANDORT TÖNNING",
    "longitude": 8.702016358858554,
    "latitude": 54.50091926085553,
    "water": {
      "shortname": "NORDSEE",
      "longname": "NORDSEE"
    }
  },
  {
    "uuid": "9c4c11f2-0548-4555-beac-ecfd36f9bd74",
    "number": "9570010",
    "shortname": "WITTDÜN",
    "longname": "WITTDÜN",
    "km": 0.0,
    "agency": "STANDORT TÖNNING",
    "longitude": 8.383942818908348,
    "latitude": 54.631760442015,
    "water": {
      "shortname": "NORDSEE",
      "longname": "NORDSEE"
    }
  },
  {
    "uuid": "4a2501bf-cb57-46bb-87d3-d6808286b31b",
    "number": "9400090",
    "shortname": "MINSENER OOG",
    "longname": "MINSENER OOG",
    "km": 1.0,
    "agency": "WILHELMSHAVEN",
    "water": {
      "shortname": "NORDSEE",
      "longname": "NORDSEE"
    }
  },
  {
    "uuid": "8727ebfd-e2e1-43da-ab3d-fee48cff9acc",
    "number": "9340020",
    "shortname": "BORKUM FISCHERBALJE",
    "longname": "BORKUM FISCHERBALJE",
    "km": 83.5,
    "agency": "STANDORT EMDEN",
    "longitude": 6.747895484692885,
    "latitude": 53.557435547240736,
    "water": {
      "shortname": "NORDSEE",
      "longname": "NORDSEE"
    }
  },
  {
    "uuid": "478f21e9-906b-4c6f-a009-b5eabb052746",
    "number": "9340030",
    "shortname": "BORKUM SÜDSTRAND",
    "longname": "BORKUM SÜDSTRAND",
    "km": 89.23,
    "agency": "STANDORT EMDEN",
    "longitude": 6.661416310788685,
    "latitude": 53.57685358685305,
    "water": {
      "shortname": "NORDSEE",
      "longname": "NORDSEE"
    }
  },
  {
    "uuid": "0d8233b8-36c9-4a24-ad77-a4e7c617932f",
    "number": "9510075",
    "shortname": "HELGOLAND SÜDHAFEN",
    "longname": "HELGOLAND SÜDHAFEN",
    "km": 100.0,
    "agency": "STANDORT TÖNNING",
    "longitude": 7.894312626997271,
    "latitude": 54.17497228796411,
    "water": {
      "shortname": "NORDSEE",
      "longname": "NORDSEE"
    }
  },
  {
    "uuid": "5287a3e1-c540-4ab1-b52e-880d124cbc43",
    "number": "9510095",
    "shortname": "BÜSUM",
    "longname": "BÜSUM",
    "km": 100.0,
    "agency": "STANDORT TÖNNING",
    "longitude": 8.859101981833861,
    "latitude": 54.12176075767589,
    "water": {
      "shortname": "NORDSEE",
      "longname": "NORDSEE"
    }
  },
  {
    "uuid": "e114aeec-c8d9-4d20-8fe1-8822058cb38b",
    "number": "9530020",
    "shortname": "HUSUM",
    "longname": "HUSUM",
    "km": 100.0,
    "agency": "STANDORT TÖNNING",
    "longitude": 9.024769717289859,
    "latitude": 54.47228311783692,
    "water": {
      "shortname": "NORDSEE",
      "longname": "NORDSEE"
    }
  },
  {
    "uuid": "6233e901-2600-4b54-ae06-7b987934e99e",
    "number": "9570040",
    "shortname": "DAGEBÜLL",
    "longname": "DAGEBÜLL",
    "km": 100.0,
    "agency": "STANDORT TÖNNING",
    "longitude": 8.686972819574338,
    "latitude": 54.73050734605736,
    "water": {
      "shortname": "NORDSEE",
      "longname": "NORDSEE"
    }
  },
  {
    "uuid": "733755fd-628f-4130-a694-aaba340531ba",
    "number": "9570050",
    "shortname": "HÖRNUM",
    "longname": "HÖRNUM",
    "km": 100.0,
    "agency": "STANDORT TÖNNING",
    "longitude": 8.29603456323715,
    "latitude": 54.75809311391088,
    "water": {
      "shortname": "NORDSEE",
      "longname": "NORDSEE"
    }
  },
  {
    "uuid": "5e92d73f-e4ea-42c1-9f98-91536c17cdff",
    "number": "9570070",
    "shortname": "LIST AUF SYLT",
    "longname": "LIST AUF SYLT",
    "km": 100.0,
    "agency": "STANDORT TÖNNING",
    "longitude": 8.440408553744717,
    "latitude": 55.0165438953849,
    "water": {
      "shortname": "NORDSEE",
      "longname": "NORDSEE"
    }
  },
  {
    "uuid": "04acd7e5-3cbc-4cdd-b4a9-f452e868f4d6",
    "number": "9530010",
    "shortname": "EIDER-SPERRWERK AP",
    "longname": "EIDER-SPERRWERK AP",
    "km": 109.617,
    "agency": "STANDORT TÖNNING",
    "longitude": 8.842130064364492,
    "latitude": 54.26592362421687,
    "water": {
      "shortname": "NORDSEE",
      "longname": "NORDSEE"
    }
  },
  {
    "uuid": "c0244c0e-6ae6-40cb-a967-4039b2a0ce7c",
    "number": "9360010",
    "shortname": "NORDERNEY RIFFGAT",
    "longname": "NORDERNEY RIFFGAT",
    "km": 159.333,
    "agency": "STANDORT EMDEN",
    "longitude": 7.157758676264963,
    "latitude": 53.69649852343097,
    "water": {
      "shortname": "NORDSEE",
      "longname": "NORDSEE"
    }
  },
  {
    "uuid": "a0c1dcb6-7812-48e6-8c01-f7edad7a2caf",
    "number": "9390010",
    "shortname": "LANGEOOG",
    "longname": "LANGEOOG",
    "km": 182.129,
    "agency": "STANDORT EMDEN",
    "longitude": 7.501653628801436,
    "latitude": 53.72323317438252,
    "water": {
      "shortname": "NORDSEE",
      "longname": "NORDSEE"
    }
  },
  {
    "uuid": "662c4b5e-0241-456d-ac7d-9f62fd95c0d1",
    "number": "9410010",
    "shortname": "SPIEKEROOG",
    "longname": "SPIEKEROOG",
    "km": 194.374,
    "agency": "STANDORT EMDEN",
    "longitude": 7.681934661515976,
    "latitude": 53.74923748393361,
    "water": {
      "shortname": "NORDSEE",
      "longname": "NORDSEE"
    }
  },
  {
    "uuid": "e574d0af-5c63-4306-b1d3-43b7359de06d",
    "number": "9510010",
    "shortname": "ZEHNERLOCH",
    "longname": "ZEHNERLOCH",
    "km": 733.0,
    "agency": "STANDORT CUXHAVEN",
    "longitude": 8.658229962288054,
    "latitude": 53.95550856446187,
    "water": {
      "shortname": "NORDSEE",
      "longname": "NORDSEE"
    }
  },
  {
    "uuid": "3ff99b92-4396-4fa7-af73-02b9c015dcad",
    "number": "9510132",
    "shortname": "MITTELGRUND",
    "longname": "MITTELGRUND",
    "km": 733.7,
    "agency": "STANDORT CUXHAVEN",
    "longitude": 8.63619733230772,
    "latitude": 53.94207510920859,
    "water": {
      "shortname": "NORDSEE",
      "longname": "NORDSEE"
    }
  },
  {
    "uuid": "f0197bcf-6846-4c0a-9659-0c2626a9bcf0",
    "number": "9510060",
    "shortname": "SCHARHÖRN",
    "longname": "SCHARHÖRN",
    "km": 745.0,
    "agency": "STANDORT CUXHAVEN",
    "longitude": 8.462560576653868,
    "latitude": 53.96703953026536,
    "water": {
      "shortname": "NORDSEE",
      "longname": "NORDSEE"
    }
  },
  {
    "uuid": "e8daa3e2-77d1-4cfa-9ac9-501e7b2b4b0a",
    "number": "9510063",
    "shortname": "BAKE A",
    "longname": "BAKE A",
    "km": 755.7,
    "agency": "STANDORT CUXHAVEN",
    "longitude": 8.315139865852297,
    "latitude": 53.9844213349779,
    "water": {
      "shortname": "NORDSEE",
      "longname": "NORDSEE"
    }
  },
  {
    "uuid": "104fdc24-1dc6-4cb7-b44f-10bd02e13f40",
    "number": "9510066",
    "shortname": "BAKE Z",
    "longname": "BAKE Z",
    "km": 755.9,
    "agency": "STANDORT CUXHAVEN",
    "longitude": 8.314601507551739,
    "latitude": 54.0135191527026,
    "water": {
      "shortname": "NORDSEE",
      "longname": "NORDSEE"
    }
  },
  {
    "uuid": "b8d05bf9-2ef2-416d-ba70-b5dba74fe777",
    "number": "9650024",
    "shortname": "ALTHAGEN",
    "longname": "ALTHAGEN",
    "agency": "STANDORT STRALSUND",
    "longitude": 12.418960482975635,
    "latitude": 54.37175749424967,
    "water": {
      "shortname": "OSTSEE",
      "longname": "OSTSEE"
    }
  },
  {
    "uuid": "09227288-8c72-4b12-88fe-8765d1b2b400",
    "number": "9650040",
    "shortname": "BARHÖFT",
    "longname": "BARHÖFT",
    "agency": "STANDORT STRALSUND",
    "longitude": 13.032221032802543,
    "latitude": 54.43453931311291,
    "water": {
      "shortname": "OSTSEE",
      "longname": "OSTSEE"
    }
  },
  {
    "uuid": "220ff4c6-83da-4a1b-9c13-dfee5a2a8798",
    "number": "9640015",
    "shortname": "WARNEMÜNDE",
    "longname": "WARNEMÜNDE",
    "km": 0.0,
    "agency": "STANDORT STRALSUND",
    "longitude": 12.10338825706324,
    "latitude": 54.16973098816682,
    "water": {
      "shortname": "OSTSEE",
      "longname": "OSTSEE"
    }
  },
  {
    "uuid": "00c33ed9-6bea-45b4-8728-7edc7e43e2f3",
    "number": "9650030",
    "shortname": "BARTH",
    "longname": "BARTH",
    "km": 0.0,
    "agency": "STANDORT STRALSUND",
    "longitude": 12.723220564867594,
    "latitude": 54.37122057673123,
    "water": {
      "shortname": "OSTSEE",
      "longname": "OSTSEE"
    }
  },
  {
    "uuid": "b9163121-2747-4d2b-bcf5-ab5ff7396e56",
    "number": "9650043",
    "shortname": "STRALSUND",
    "longname": "STRALSUND",
    "km": 0.0,
    "agency": "STANDORT STRALSUND",
    "longitude": 13.119014797980478,
    "latitude": 54.30568217868532,
    "water": {
      "shortname": "OSTSEE",
      "longname": "OSTSEE"
    }
  },
  {
    "uuid": "340707f4-5d35-4898-8b34-95ea3f4206b3",
    "number": "9650070",
    "shortname": "STAHLBRODE",
    "longname": "STAHLBRODE",
    "km": 0.0,
    "agency": "STANDORT STRALSUND",
    "longitude": 13.289714493128574,
    "latitude": 54.234461099326666,
    "water": {
      "shortname": "OSTSEE",
      "longname": "OSTSEE"
    }
  },
  {
    "uuid": "b327e35c-5dad-4b79-9cef-60fbd504eb37",
    "number": "9650080",
    "shortname": "WOLGAST",
    "longname": "WOLGAST",
    "km": 0.0,
    "agency": "STANDORT STRALSUND",
    "longitude": 13.77037952077918,
    "latitude": 54.04173736440726,
    "water": {
      "shortname": "OSTSEE",
      "longname": "OSTSEE"
    }
  },
  {
    "uuid": "492f85b8-e5c6-439e-8e14-08ca78f10dce",
    "number": "9670046",
    "shortname": "NEUENDORF HAFEN",
    "longname": "NEUENDORF HAFEN",
    "km": 0.0,
    "agency": "STANDORT STRALSUND",
    "longitude": 13.093555157353748,
    "latitude": 54.52449364846292,
    "water": {
      "shortname": "OSTSEE",
      "longname": "OSTSEE"
    }
  },
  {
    "uuid": "905e7328-b8aa-4b08-9c22-c864101e462b",
    "number": "9670050",
    "shortname": "KLOSTER",
    "longname": "KLOSTER",
    "km": 0.0,
    "agency": "STANDORT STRALSUND",
    "longitude": 13.111362240678364,
    "latitude": 54.584766443253756,
    "water": {
      "shortname": "OSTSEE",
      "longname": "OSTSEE"
    }
  },
  {
    "uuid": "4b348b56-b08c-4522-9042-49c1edb45d0d",
    "number": "9670055",
    "shortname": "WITTOWER FÄHRE",
    "longname": "WITTOWER FÄHRE",
    "km": 0.0,
    "agency": "STANDORT STRALSUND",
    "longitude": 13.245134582969719,
    "latitude": 54.55759359561219,
    "water": {
      "shortname": "OSTSEE",
      "longname": "OSTSEE"
    }
  },
  {
    "uuid": "91922b9b-ef7b-4aae-95a1-9d6a9e61969a",
    "number": "9670063",
    "shortname": "LAUTERBACH",
    "longname": "LAUTERBACH",
    "km": 0.0,
    "agency": "STANDORT STRALSUND",
    "longitude": 13.499696400314125,
    "latitude": 54.3416033935843,
    "water": {
      "shortname": "OSTSEE",
      "longname": "OSTSEE"
    }
  },
  {
    "uuid": "9e7b2a4d-cfe8-4524-8a1e-c196ea897e9f",
    "number": "9670065",
    "shortname": "SASSNITZ",
    "longname": "SASSNITZ",
    "km": 0.0,
    "agency": "STANDORT STRALSUND",
    "longitude": 13.636651355609894,
    "latitude": 54.50829305906584,
    "water": {
      "shortname": "OSTSEE",
      "longname": "OSTSEE"
    }
  },
  {
    "uuid": "d1c9bb3c-2929-46a8-a338-adfddf0ef524",
    "number": "9670067",
    "shortname": "THIESSOW",
    "longname": "THIESSOW",
    "km": 0.0,
    "agency": "STANDORT STRALSUND",
    "longitude": 13.709756972733516,
    "latitude": 54.28066658937803,
    "water": {
      "shortname": "OSTSEE",
      "longname": "OSTSEE"
    }
  },
  {
    "uuid": "1fa822e6-fb0c-4331-83f1-749972046dca",
    "number": "9690077",
    "shortname": "RUDEN",
    "longname": "RUDEN",
    "km": 0.0,
    "agency": "STANDORT STRALSUND",
    "longitude": 13.771905637420616,
    "latitude": 54.20434785269332,
    "water": {
      "shortname": "OSTSEE",
      "longname": "OSTSEE"
    }
  },
  {
    "uuid": "087b6386-0957-4b47-af7d-ecd62f6d63ce",
    "number": "9690078",
    "shortname": "GREIFSWALD OIE",
    "longname": "GREIFSWALD OIE",
    "km": 0.0,
    "agency": "STANDORT STRALSUND",
    "longitude": 13.907208142774298,
    "latitude": 54.241313337573885,
    "water": {
      "shortname": "OSTSEE",
      "longname": "OSTSEE"
    }
  },
  {
    "uuid": "f53bb77f-e55a-468f-b7be-b66baf7e3e5b",
    "number": "9690085",
    "shortname": "KARLSHAGEN",
    "longname": "KARLSHAGEN",
    "km": 0.0,
    "agency": "STANDORT STRALSUND",
    "longitude": 13.807622038541595,
    "latitude": 54.10786012437913,
    "water": {
      "shortname": "OSTSEE",
      "longname": "OSTSEE"
    }
  },
  {
    "uuid": "c0f33a36-cac4-4e47-a3f5-d1863c2f0f99",
    "number": "9690093",
    "shortname": "KOSEROW",
    "longname": "KOSEROW",
    "km": 0.0,
    "agency": "STANDORT STRALSUND",
    "longitude": 14.000822919442996,
    "latitude": 54.06037833524713,
    "water": {
      "shortname": "OSTSEE",
      "longname": "OSTSEE"
    }
  },
  {
    "uuid": "6b53ef42-5bd9-4366-ace3-442e307bec60",
    "number": "9650073",
    "shortname": "GREIFSWALD-WIECK",
    "longname": "GREIFSWALD-WIECK",
    "km": 1.0,
    "agency": "STANDORT STRALSUND",
    "longitude": 13.457152923470648,
    "latitude": 54.09771135196671,
    "water": {
      "shortname": "OSTSEE",
      "longname": "OSTSEE"
    }
  },
  {
    "uuid": "9e19c411-f728-4a43-a057-39d4155c71cc",
    "number": "9610010",
    "shortname": "FLENSBURG",
    "longname": "FLENSBURG",
    "km": 4.0,
    "agency": "STANDORT LÜBECK",
    "longitude": 9.43301766621292,
    "latitude": 54.795056780405034,
    "water": {
      "shortname": "OSTSEE",
      "longname": "OSTSEE"
    }
  },
  {
    "uuid": "5a33bf14-6bdc-4666-b2e3-ac78e3083e2a",
    "number": "9610015",
    "shortname": "LANGBALLIGAU",
    "longname": "LANGBALLIGAU",
    "km": 35.0,
    "agency": "STANDORT LÜBECK",
    "longitude": 9.654140992315282,
    "latitude": 54.823267291869904,
    "water": {
      "shortname": "OSTSEE",
      "longname": "OSTSEE"
    }
  },
  {
    "uuid": "22b7dcb3-8c42-4f71-9191-49143ba3a828",
    "number": "9610020",
    "shortname": "LT KALKGRUND",
    "longname": "LT KALKGRUND",
    "km": 61.5,
    "agency": "STANDORT LÜBECK",
    "longitude": 9.888008024317406,
    "latitude": 54.82459902141549,
    "water": {
      "shortname": "OSTSEE",
      "longname": "OSTSEE"
    }
  },
  {
    "uuid": "70d4f87f-4489-455a-a435-d6df9e09a87e",
    "number": "9610025",
    "shortname": "SCHLEIMÜNDE SP",
    "longname": "SCHLEIMÜNDE SP",
    "km": 78.0,
    "agency": "STANDORT LÜBECK",
    "longitude": 10.036688584395906,
    "latitude": 54.67273603368201,
    "water": {
      "shortname": "OSTSEE",
      "longname": "OSTSEE"
    }
  },
  {
    "uuid": "d22c341b-80c2-436d-98e1-8a2575bc975a",
    "number": "9630007",
    "shortname": "TIMMENDORF POEL",
    "longname": "TIMMENDORF POEL",
    "km": 100.0,
    "agency": "STANDORT LÜBECK",
    "longitude": 11.375642142698938,
    "latitude": 53.99199676671613,
    "water": {
      "shortname": "OSTSEE",
      "longname": "OSTSEE"
    }
  },
  {
    "uuid": "95a0ab45-a9ac-4f9a-93e9-b0ffa1c57b5f",
    "number": "9630008",
    "shortname": "WISMAR-BAUMHAUS",
    "longname": "WISMAR-BAUMHAUS",
    "km": 100.0,
    "agency": "STANDORT LÜBECK",
    "longitude": 11.457917784463794,
    "latitude": 53.89876160549276,
    "water": {
      "shortname": "OSTSEE",
      "longname": "OSTSEE"
    }
  },
  {
    "uuid": "06219dd9-a2c4-463c-9619-623b3c026cbc",
    "number": "9610070",
    "shortname": "HEILIGENHAFEN",
    "longname": "HEILIGENHAFEN",
    "km": 123.0,
    "agency": "STANDORT LÜBECK",
    "longitude": 11.005664168144426,
    "latitude": 54.372959365395786,
    "water": {
      "shortname": "OSTSEE",
      "longname": "OSTSEE"
    }
  },
  {
    "uuid": "3ad4013f-644b-47f5-a641-44b332bfecb2",
    "number": "9610066",
    "shortname": "KIEL-HOLTENAU",
    "longname": "KIEL-HOLTENAU",
    "km": 150.0,
    "agency": "STANDORT LÜBECK",
    "longitude": 10.157049612180776,
    "latitude": 54.37208668229111,
    "water": {
      "shortname": "OSTSEE",
      "longname": "OSTSEE"
    }
  },
  {
    "uuid": "736437d7-0f6f-41b7-bc69-5ed721da4f85",
    "number": "9610050",
    "shortname": "LT KIEL",
    "longname": "LT KIEL",
    "km": 177.75,
    "agency": "STANDORT LÜBECK",
    "longitude": 10.273267865043424,
    "latitude": 54.499588791796825,
    "water": {
      "shortname": "OSTSEE",
      "longname": "OSTSEE"
    }
  },
  {
    "uuid": "3f0b6b74-80a9-4576-a3cb-ea967dfc349f",
    "number": "9610080",
    "shortname": "NEUSTADT",
    "longname": "NEUSTADT",
    "km": 263.0,
    "agency": "STANDORT LÜBECK",
    "longitude": 10.804987829789335,
    "latitude": 54.09652309664692,
    "water": {
      "shortname": "OSTSEE",
      "longname": "OSTSEE"
    }
  },
  {
    "uuid": "8effc15d-8583-4ac6-9f42-1b63c47f92b0",
    "number": "9610075",
    "shortname": "MARIENLEUCHTE",
    "longname": "MARIENLEUCHTE",
    "km": 284.7,
    "agency": "STANDORT LÜBECK",
    "longitude": 11.238874338140052,
    "latitude": 54.49663026314798,
    "water": {
      "shortname": "OSTSEE",
      "longname": "OSTSEE"
    }
  },
  {
    "uuid": "b09f2243-60f0-469a-8f3b-0ea6abc83267",
    "number": "9610035",
    "shortname": "KAPPELN",
    "longname": "KAPPELN",
    "km": 507.3,
    "agency": "STANDORT LÜBECK",
    "longitude": 9.937938134263065,
    "latitude": 54.66438391176661,
    "water": {
      "shortname": "OSTSEE",
      "longname": "OSTSEE"
    }
  },
  {
    "uuid": "09370c05-1041-4395-a5d4-b8db6e59c4c8",
    "number": "9610040",
    "shortname": "SCHLESWIG",
    "longname": "SCHLESWIG",
    "km": 540.0,
    "agency": "STANDORT LÜBECK",
    "longitude": 9.569058518839194,
    "latitude": 54.51143169392662,
    "water": {
      "shortname": "OSTSEE",
      "longname": "OSTSEE"
    }
  },
  {
    "uuid": "1faa9b2c-c269-4662-af70-ef11da27cc1c",
    "number": "9610045",
    "shortname": "ECKERNFÖRDE",
    "longname": "ECKERNFÖRDE",
    "km": 612.0,
    "agency": "STANDORT LÜBECK",
    "longitude": 9.836007267744343,
    "latitude": 54.474702770338084,
    "water": {
      "shortname": "OSTSEE",
      "longname": "OSTSEE"
    }
  }
]